[
  {
    "id": "dental-warsaw-001",
    "name": "Klinika Stomatologiczna Centrum",
    "address": "ul. Nowy Świat 28, 00-373 Warszawa",
    "lat": 52.2330,
    "lng": 21.0210,
    "category": "dental",
    "rating": 4.8,
    "review_count": 187,
    "website": "https://dental-centrum.pl",
    "phone": "+48 22 826 12 34",
    "hours": ["Mon–Fri 8:00–20:00", "Sat 9:00–14:00"],
    "photos": []
  },
  {
    "id": "dental-warsaw-002",
    "name": "DentaPol Mokotów",
    "address": "ul. Puławska 145, 02-515 Warszawa",
    "lat": 52.2100,
    "lng": 21.0050,
    "category": "dental",
    "rating": 4.6,
    "review_count": 93,
    "website": null,
    "phone": "+48 22 542 08 70",
    "hours": ["Mon–Thu 9:00–19:00", "Fri 9:00–17:00"],
    "photos": []
  },
  {
    "id": "dental-warsaw-003",
    "name": "Białe Uśmiechy Stomatologia",
    "address": "ul. Marszałkowska 84, 00-514 Warszawa",
    "lat": 52.2290,
    "lng": 21.0070,
    "category": "dental",
    "rating": 4.5,
    "review_count": 124,
    "website": "https://bialeusmiechy.pl",
    "phone": "+48 22 629 44 11",
    "hours": ["Mon–Fri 8:30–19:30", "Sat 10:00–14:00"],
    "photos": []
  },
  {
    "id": "dental-berlin-001",
    "name": "Zahnarztpraxis am Kudamm",
    "address": "Kurfürstendamm 195, 10707 Berlin",
    "lat": 52.5035,
    "lng": 13.3249,
    "category": "dental",
    "rating": 4.7,
    "review_count": 211,
    "website": "https://zahnarzt-kudamm.de",
    "phone": "+49 30 881 42 60",
    "hours": ["Mon–Fri 8:00–18:00", "Sat 9:00–13:00"],
    "photos": []
  },
  {
    "id": "dental-berlin-002",
    "name": "Berliner Zahnklinik Mitte",
    "address": "Friedrichstraße 76, 10117 Berlin",
    "lat": 52.5225,
    "lng": 13.3870,
    "category": "dental",
    "rating": 4.9,
    "review_count": 342,
    "website": "https://berliner-zahnklinik.de",
    "phone": "+49 30 204 50 80",
    "hours": ["Mon–Thu 8:00–19:00", "Fri 8:00–16:00"],
    "photos": []
  },
  {
    "id": "dental-berlin-003",
    "name": "Praxis Müller & Schmidt",
    "address": "Schönhauser Allee 10, 10119 Berlin",
    "lat": 52.5392,
    "lng": 13.4130,
    "category": "dental",
    "rating": 4.4,
    "review_count": 76,
    "website": null,
    "phone": "+49 30 448 23 91",
    "hours": ["Mon–Wed 9:00–18:00", "Thu–Fri 9:00–20:00"],
    "photos": []
  },
  {
    "id": "dental-london-001",
    "name": "City Dental London",
    "address": "12 Gresham Street, London EC2V 7NQ",
    "lat": 51.5162,
    "lng": -0.0937,
    "category": "dental",
    "rating": 4.8,
    "review_count": 268,
    "website": "https://citydentallondon.co.uk",
    "phone": "+44 20 7600 1234",
    "hours": ["Mon–Fri 8:00–19:00"],
    "photos": []
  },
  {
    "id": "dental-london-002",
    "name": "Kensington Dental Studio",
    "address": "38 Earls Court Road, London W8 6EJ",
    "lat": 51.4952,
    "lng": -0.1948,
    "category": "dental",
    "rating": 4.6,
    "review_count": 143,
    "website": "https://kensingtondentalstudio.co.uk",
    "phone": "+44 20 7938 2121",
    "hours": ["Mon–Fri 9:00–18:00", "Sat 10:00–14:00"],
    "photos": []
  },
  {
    "id": "dental-london-003",
    "name": "Marble Arch Dental Care",
    "address": "4 Seymour Place, London W1H 5BJ",
    "lat": 51.5147,
    "lng": -0.1646,
    "category": "dental",
    "rating": 4.5,
    "review_count": 97,
    "website": null,
    "phone": "+44 20 7723 8880",
    "hours": ["Mon–Thu 8:30–18:30", "Fri 8:30–17:00"],
    "photos": []
  },
  {
    "id": "dental-london-004",
    "name": "Camden Dental Practice",
    "address": "90 Camden High Street, London NW1 0LU",
    "lat": 51.5390,
    "lng": -0.1428,
    "category": "dental",
    "rating": 4.3,
    "review_count": 61,
    "website": "https://camdendentalpractice.co.uk",
    "phone": "+44 20 7482 3333",
    "hours": ["Mon–Fri 9:00–17:30"],
    "photos": []
  },
  {
    "id": "coffee-warsaw-001",
    "name": "Kawiarnia Literacka",
    "address": "ul. Nowy Świat 14, 00-373 Warszawa",
    "lat": 52.2315,
    "lng": 21.0195,
    "category": "coffee",
    "rating": 4.6,
    "review_count": 389,
    "website": "https://kawiarnia-literacka.pl",
    "phone": "+48 22 826 88 95",
    "hours": ["Mon–Fri 7:30–21:00", "Sat–Sun 9:00–21:00"],
    "photos": []
  },
  {
    "id": "coffee-warsaw-002",
    "name": "Relaks Coffee Roasters",
    "address": "ul. Targowa 56, 03-729 Warszawa",
    "lat": 52.2490,
    "lng": 21.0600,
    "category": "coffee",
    "rating": 4.8,
    "review_count": 512,
    "website": "https://relaks.coffee",
    "phone": null,
    "hours": ["Mon–Fri 8:00–19:00", "Sat–Sun 10:00–18:00"],
    "photos": []
  },
  {
    "id": "coffee-warsaw-003",
    "name": "Czarna Przerwa",
    "address": "ul. Hoża 42, 00-681 Warszawa",
    "lat": 52.2233,
    "lng": 21.0168,
    "category": "coffee",
    "rating": 4.5,
    "review_count": 246,
    "website": null,
    "phone": "+48 22 628 30 12",
    "hours": ["Mon–Fri 7:00–20:00", "Sat 9:00–19:00"],
    "photos": []
  },
  {
    "id": "coffee-berlin-001",
    "name": "Bonanza Coffee Roasters",
    "address": "Oderberger Str. 35, 10435 Berlin",
    "lat": 52.5415,
    "lng": 13.4070,
    "category": "coffee",
    "rating": 4.7,
    "review_count": 734,
    "website": "https://bonanzacoffee.de",
    "phone": "+49 30 4737 2450",
    "hours": ["Mon–Fri 8:00–19:00", "Sat–Sun 9:00–19:00"],
    "photos": []
  },
  {
    "id": "coffee-berlin-002",
    "name": "The Barn Auguststraße",
    "address": "Auguststraße 58, 10119 Berlin",
    "lat": 52.5270,
    "lng": 13.3920,
    "category": "coffee",
    "rating": 4.6,
    "review_count": 621,
    "website": "https://thebarn.de",
    "phone": null,
    "hours": ["Mon–Sat 8:30–19:00", "Sun 10:00–18:00"],
    "photos": []
  },
  {
    "id": "coffee-berlin-003",
    "name": "Five Elephant Kreuzberg",
    "address": "Reichenberger Str. 101, 10999 Berlin",
    "lat": 52.4940,
    "lng": 13.4320,
    "category": "coffee",
    "rating": 4.8,
    "review_count": 892,
    "website": "https://fiveelephant.com",
    "phone": "+49 30 9688 5527",
    "hours": ["Mon–Fri 8:00–18:00", "Sat–Sun 9:00–18:00"],
    "photos": []
  },
  {
    "id": "coffee-london-001",
    "name": "Monmouth Coffee Borough",
    "address": "2 Park Street, London SE1 9AB",
    "lat": 51.5054,
    "lng": -0.0910,
    "category": "coffee",
    "rating": 4.8,
    "review_count": 1423,
    "website": "https://monmouthcoffee.co.uk",
    "phone": "+44 20 7232 3010",
    "hours": ["Mon–Sat 7:30–18:00"],
    "photos": []
  },
  {
    "id": "coffee-london-002",
    "name": "Ozone Coffee Shoreditch",
    "address": "11 Leonard Street, London EC2A 4AQ",
    "lat": 51.5251,
    "lng": -0.0851,
    "category": "coffee",
    "rating": 4.7,
    "review_count": 867,
    "website": "https://ozonecoffee.co.uk",
    "phone": "+44 20 7490 1039",
    "hours": ["Mon–Fri 7:00–17:00", "Sat–Sun 9:00–17:00"],
    "photos": []
  },
  {
    "id": "coffee-london-003",
    "name": "Notes Coffee Trafalgar",
    "address": "31 St Martin's Lane, London WC2N 4ER",
    "lat": 51.5093,
    "lng": -0.1260,
    "category": "coffee",
    "rating": 4.5,
    "review_count": 445,
    "website": "https://notescoffee.com",
    "phone": null,
    "hours": ["Mon–Fri 7:30–19:00", "Sat 9:00–18:00"],
    "photos": []
  },
  {
    "id": "coffee-london-004",
    "name": "Prufrock Coffee Clerkenwell",
    "address": "23-25 Leather Lane, London EC1N 7TE",
    "lat": 51.5207,
    "lng": -0.1091,
    "category": "coffee",
    "rating": 4.6,
    "review_count": 628,
    "website": "https://prufrockcoffee.com",
    "phone": "+44 20 7242 0467",
    "hours": ["Mon–Fri 8:00–18:00", "Sat 10:00–17:00"],
    "photos": []
  },
  {
    "id": "consulting-warsaw-001",
    "name": "CodeFlow Consulting",
    "address": "ul. Złota 59, 00-120 Warszawa",
    "lat": 52.2310,
    "lng": 20.9870,
    "category": "consulting",
    "rating": 4.5,
    "review_count": 28,
    "website": "https://codeflow.consulting",
    "phone": "+48 22 307 55 00",
    "hours": ["Mon–Fri 9:00–18:00"],
    "photos": []
  },
  {
    "id": "consulting-warsaw-002",
    "name": "DataStream Advisory",
    "address": "ul. Emilii Plater 51, 00-113 Warszawa",
    "lat": 52.2305,
    "lng": 20.9847,
    "category": "consulting",
    "rating": 4.2,
    "review_count": 14,
    "website": "https://datastream.advisory",
    "phone": null,
    "hours": ["Mon–Fri 9:00–17:00"],
    "photos": []
  },
  {
    "id": "consulting-warsaw-003",
    "name": "NexaTech Partners",
    "address": "al. Jana Pawła II 22, 00-133 Warszawa",
    "lat": 52.2390,
    "lng": 20.9860,
    "category": "consulting",
    "rating": 4.6,
    "review_count": 41,
    "website": "https://nexatech.pl",
    "phone": "+48 22 531 88 40",
    "hours": ["Mon–Fri 8:30–17:30"],
    "photos": []
  },
  {
    "id": "consulting-berlin-001",
    "name": "Bluestack Ventures",
    "address": "Potsdamer Platz 1, 10785 Berlin",
    "lat": 52.5096,
    "lng": 13.3768,
    "category": "consulting",
    "rating": 4.3,
    "review_count": 22,
    "website": "https://bluestack.ventures",
    "phone": "+49 30 2575 6600",
    "hours": ["Mon–Fri 9:00–18:00"],
    "photos": []
  },
  {
    "id": "consulting-berlin-002",
    "name": "FlowMetrics GmbH",
    "address": "Rosenthaler Str. 13, 10119 Berlin",
    "lat": 52.5282,
    "lng": 13.3960,
    "category": "consulting",
    "rating": 4.7,
    "review_count": 38,
    "website": "https://flowmetrics.io",
    "phone": null,
    "hours": ["Mon–Fri 9:00–17:00"],
    "photos": []
  },
  {
    "id": "consulting-berlin-003",
    "name": "Agile Bridge GmbH",
    "address": "Kastanienallee 82, 10435 Berlin",
    "lat": 52.5415,
    "lng": 13.4120,
    "category": "consulting",
    "rating": 4.1,
    "review_count": 17,
    "website": "https://agilebridge.de",
    "phone": "+49 30 4473 6891",
    "hours": ["Mon–Fri 8:00–17:00"],
    "photos": []
  },
  {
    "id": "consulting-berlin-004",
    "name": "Stackwise Berlin",
    "address": "Torstraße 49, 10119 Berlin",
    "lat": 52.5284,
    "lng": 13.3917,
    "category": "consulting",
    "rating": 4.4,
    "review_count": 29,
    "website": null,
    "phone": "+49 30 2809 4433",
    "hours": ["Mon–Fri 9:00–18:00"],
    "photos": []
  },
  {
    "id": "consulting-london-001",
    "name": "Horizon Digital Partners",
    "address": "33 Holborn, London EC1N 2HT",
    "lat": 51.5183,
    "lng": -0.1085,
    "category": "consulting",
    "rating": 4.4,
    "review_count": 19,
    "website": "https://horizondigital.partners",
    "phone": "+44 20 7242 8800",
    "hours": ["Mon–Fri 9:00–18:00"],
    "photos": []
  },
  {
    "id": "consulting-london-002",
    "name": "Clarity SaaS Ltd",
    "address": "70 Wilson Street, London EC2A 2DB",
    "lat": 51.5220,
    "lng": -0.0870,
    "category": "consulting",
    "rating": 4.6,
    "review_count": 33,
    "website": "https://clarity-saas.co.uk",
    "phone": null,
    "hours": ["Mon–Fri 9:00–17:30"],
    "photos": []
  },
  {
    "id": "consulting-london-003",
    "name": "PivotLab London",
    "address": "124 City Road, London EC1V 2NX",
    "lat": 51.5266,
    "lng": -0.0893,
    "category": "consulting",
    "rating": 4.3,
    "review_count": 25,
    "website": "https://pivotlab.io",
    "phone": "+44 20 3890 7715",
    "hours": ["Mon–Fri 8:30–18:30"],
    "photos": []
  }
]
